City_ID,City,Lat,Lng,Max Temp,Humidity,Cloudiness,Wind Speed,Country,Date
0,bredasdorp,-34.5322,20.0403,13.8,84,100,4.48,ZA,1686516186
1,son la,21.3167,103.9,21.26,97,98,0.66,VN,1686516249
2,badger,64.8,-147.5333,18.06,38,40,6.69,US,1686516249
3,arboletes,8.8505,-76.4269,29.93,75,92,3.71,CO,1686516249
4,west island,-12.1568,96.8225,25.99,73,98,10.61,CC,1686516249
5,saldanha,-33.0117,17.9442,13.03,88,100,5.83,ZA,1686516250
6,eceabat,40.1842,26.3574,20.98,60,0,3.09,TR,1686516250
7,albany,42.6001,-73.9662,27.97,43,100,1.73,US,1686516086
8,carnarvon,-24.8667,113.6333,16.11,62,0,8.31,AU,1686516250
9,ouesso,1.6136,16.0517,23.66,84,38,1.16,CG,1686516250
10,enewetak,11.3474,162.3373,27.93,81,93,7.63,MH,1686516250
11,adamstown,-25.066,-130.1015,20.31,68,10,7.65,PN,1686516184
12,waitangi,-43.9535,-176.5597,11.01,77,100,5.46,NZ,1686516251
13,cidreira,-30.1811,-50.2056,13.36,73,73,5.52,BR,1686516251
14,grytviken,-54.2811,-36.5092,-3.05,84,37,5.38,GS,1686516251
15,college,64.8569,-147.8028,18.1,35,75,6.69,US,1686516251
16,invercargill,-46.4,168.35,8.26,85,96,3.16,NZ,1686516251
17,akbarabad,29.2464,52.7793,27.79,26,0,1.65,IR,1686516251
18,tabora,-5.0167,32.8,19.88,68,20,0.0,TZ,1686516252
19,berdyansk,46.7503,36.7944,18.63,89,1,3.03,UA,1686516252
20,bilibino,68.0546,166.4372,13.25,79,100,1.92,RU,1686516252
21,port-aux-francais,-49.35,70.2167,5.38,89,100,18.93,TF,1686516252
22,la passe,45.5549,-0.8967,23.13,81,3,4.47,FR,1686516252
23,san jose del guaviare,2.5729,-72.6459,27.86,79,69,1.74,CO,1686516252
24,pacific grove,36.6177,-121.9166,19.08,76,100,5.14,US,1686516252
25,yacuiba,-22.038,-63.6797,10.85,45,100,3.28,BO,1686516253
26,bethel,41.3712,-73.414,28.47,41,0,4.12,US,1686516253
27,klyuchi,52.2667,79.1667,14.31,64,0,1.06,RU,1686516253
28,tiksi,71.6872,128.8694,-0.24,96,100,6.93,RU,1686516253
29,yuzhno-kurilsk,44.0306,145.8556,11.92,97,100,4.08,RU,1686516253
30,lamu,-2.2717,40.902,26.12,82,100,5.91,KE,1686516253
31,vilyuchinsk,52.9306,158.4028,13.15,60,1,3.14,RU,1686516253
32,keflavik,64.0049,-22.5624,8.95,76,100,8.75,IS,1686516253
33,port augusta,-32.5,137.7667,10.32,58,0,5.31,AU,1686516254
34,ribeira grande,38.5167,-28.7,20.22,77,40,7.15,PT,1686516254
35,port blair,11.6667,92.75,28.02,89,75,2.57,IN,1686516254
36,touros,-5.1989,-35.4608,24.55,90,9,4.56,BR,1686516254
37,stanley,54.868,-1.6985,18.19,84,20,2.06,GB,1686516254
38,darwin,-12.4611,130.8418,20.99,94,0,2.06,AU,1686516108
39,astrakhan,46.3497,48.0408,23.93,64,0,5.0,RU,1686516254
40,necochea,-38.5473,-58.7368,6.99,48,1,5.77,AR,1686516254
41,nasice,45.4886,18.0878,17.64,97,100,3.24,HR,1686516254
42,concordia,-31.393,-58.0209,10.99,41,0,4.47,AR,1686516255
43,remire-montjoly,4.9167,-52.2667,25.02,94,75,1.03,GF,1686516255
44,pathein,16.7833,94.7333,26.9,82,88,3.56,MM,1686516255
45,olonkinbyen,70.9221,-8.7187,1.32,88,100,6.29,SJ,1686516255
46,san juan de miraflores,-12.1629,-76.9635,24.54,68,33,4.8,PE,1686516255
47,butembo,0.15,29.2833,14.18,95,86,0.89,CD,1686516255
48,port elizabeth,-33.918,25.5701,11.84,95,0,2.57,ZA,1686516255
49,cabo san lucas,22.8909,-109.9124,34.23,35,0,3.6,MX,1686516028
50,porto novo,6.4965,2.6036,26.9,81,100,2.04,BJ,1686516256
51,kondagaon,19.6,81.6667,26.11,55,56,2.58,IN,1686516256
52,wailua homesteads,22.0669,-159.378,27.24,78,20,6.17,US,1686516256
53,perugorria,-29.3413,-58.6106,9.89,49,0,3.58,AR,1686516256
54,ibshaway,29.358,30.6814,26.95,35,1,4.41,EG,1686516256
55,ihosy,-22.4,46.1167,14.97,67,1,1.66,MG,1686516256
56,bodden town,19.2833,-81.25,32.0,70,20,5.14,KY,1686516256
57,leava,-14.3,-178.1667,27.43,78,29,8.94,WF,1686516257
58,kharp,66.8014,65.8081,2.59,84,100,5.41,RU,1686516257
59,edinburgh of the seven seas,-37.0676,-12.3116,16.35,81,74,11.27,SH,1686516257
60,port mathurin,-19.6833,63.4167,25.11,67,7,8.54,MU,1686516257
61,kone,-21.0595,164.8658,20.5,64,2,2.2,NC,1686516257
62,bom jesus,-9.0744,-44.3586,31.56,31,52,2.29,BR,1686516257
63,makokou,0.5738,12.8642,21.63,97,97,1.05,GA,1686516257
64,san buenaventura,27.0833,-101.5333,39.71,26,3,2.64,MX,1686516258
65,saipan,15.1355,145.701,27.58,100,40,5.14,MP,1686516258
66,sai kung,22.3822,114.2728,30.03,88,99,2.66,CN,1686516258
67,utrik,11.2278,169.8474,27.48,82,46,7.41,MH,1686516258
68,punta arenas,-53.15,-70.9167,3.06,81,40,10.29,CL,1686516209
69,susuman,62.7833,148.1667,17.71,44,15,1.46,RU,1686516258
70,avarua,-21.2078,-159.775,26.03,78,4,2.06,CK,1686516258
71,puerto natales,-51.7236,-72.4875,6.25,65,75,6.69,CL,1686516259
72,thompson,55.7435,-97.8558,26.09,31,40,8.23,CA,1686516259
73,longyearbyen,78.2186,15.6401,2.91,87,75,10.29,SJ,1686516259
74,puerto baquerizo moreno,-0.9,-89.6,28.55,70,40,6.17,EC,1686516259
75,vorgashor,67.5833,63.95,-0.03,82,100,8.38,RU,1686516259
76,margaret river,-33.95,115.0667,13.58,62,100,6.64,AU,1686516184
77,pontalina,-17.525,-49.4472,24.65,42,19,0.53,BR,1686516259
78,udachny,66.4167,112.4,1.36,92,89,6.77,RU,1686516260
79,dudinka,69.4058,86.1778,9.79,48,100,7.11,RU,1686516260
80,igarka,67.4667,86.5833,10.84,51,100,9.1,RU,1686516260
81,guiuan,11.0333,125.7247,28.88,75,100,5.81,PH,1686516260
82,kisaran,2.9845,99.6158,24.1,98,100,1.54,ID,1686516260
83,mani,4.8172,-72.2886,30.26,69,87,1.29,CO,1686516260
84,taroa,8.7058,171.2275,28.12,76,100,7.23,MH,1686516260
85,cedeira,43.6797,-8.0209,17.93,82,66,1.34,ES,1686516261
86,akrehamn,59.2667,5.1833,17.14,48,0,4.63,NO,1686516261
87,puerto deseado,-47.7503,-65.8938,5.06,62,31,14.82,AR,1686516261
88,mossel bay,-34.1831,22.146,13.96,62,100,6.98,ZA,1686516261
89,kalmunai,7.4167,81.8167,27.19,80,98,3.1,LK,1686516261
90,crane,31.3974,-102.3501,37.12,14,0,1.99,US,1686516261
91,sinan,34.8262,126.1086,20.06,90,1,3.34,KR,1686516261
92,anadyr,64.75,177.4833,5.28,86,75,4.0,RU,1686516261
93,saint-pierre,-21.3393,55.4781,22.82,68,0,3.09,RE,1686516262
94,mandalgovi,45.7625,106.2708,16.01,47,81,4.07,MN,1686516262
95,iqaluit,63.7506,-68.5145,4.85,80,75,7.72,CA,1686516262
96,lompoc,34.6391,-120.4579,21.5,73,100,3.6,US,1686516262
97,medina,24.4686,39.6142,35.24,12,0,5.14,SA,1686516143
98,basco,20.4487,121.9702,28.23,82,100,10.2,PH,1686516262
99,cannonvale,-20.2833,148.7,20.66,88,55,4.67,AU,1686516262
100,vazante,-17.9869,-46.9078,25.1,37,42,1.29,BR,1686516150
101,freetown,8.484,-13.2299,25.84,94,75,3.6,SL,1686516263
102,happy valley-goose bay,53.3168,-60.3315,17.17,48,40,8.75,CA,1686516263
103,meadow lakes,61.6247,-149.6011,13.28,58,40,5.14,US,1686516263
104,viedma,-40.8135,-62.9967,7.39,62,11,4.6,AR,1686516263
105,ponta delgada,37.7333,-25.6667,18.4,77,20,4.12,PT,1686516263
106,hadibu,12.65,54.0333,27.91,81,99,7.6,YE,1686516263
107,nogliki,51.8333,143.1667,7.92,99,100,1.3,RU,1686516263
108,iskateley,67.6803,53.1512,3.28,60,100,4.31,RU,1686516263
109,chake chake,-5.2459,39.7666,23.77,78,11,3.69,TZ,1686516263
110,hawaiian paradise park,19.5933,-154.9731,26.73,84,75,3.6,US,1686516264
111,al jumum,21.6169,39.6981,33.28,31,0,2.28,SA,1686516264
112,callao,-12.0667,-77.15,25.4,64,100,5.14,PE,1686516264
113,acarau,-2.8856,-40.12,26.5,77,3,6.21,BR,1686516249
114,yellowknife,62.456,-114.3525,5.31,93,100,6.17,CA,1686516048
115,antsiranana,-12.2787,49.2917,22.57,88,5,3.85,MG,1686516264
116,walvis bay,-22.9575,14.5053,13.38,93,0,1.54,NA,1686516264
117,maricopa,33.0581,-112.0476,35.02,15,0,7.72,US,1686516238
118,codrington,-38.2667,141.9667,9.75,72,95,6.64,AU,1686516264
119,caleta de carquin,-11.0925,-77.6267,22.05,72,19,4.8,PE,1686516265
120,ushuaia,-54.8,-68.3,0.81,86,75,9.26,AR,1686516265
121,zhuzhou,27.8333,113.15,25.07,82,89,1.35,CN,1686516265
122,nemuro,43.3236,145.575,12.08,98,100,4.09,JP,1686516265
123,reyes,-14.3167,-67.3833,27.73,75,31,2.12,BO,1686516265
124,nabire,-3.3667,135.4833,24.47,94,92,1.27,ID,1686516265
125,blackmans bay,-43.0167,147.3167,9.85,87,100,2.7,AU,1686516266
126,choconta,5.1447,-73.6858,17.33,64,59,3.52,CO,1686516266
127,novodvinsk,64.4165,40.8122,8.34,76,91,2.7,RU,1686516266
128,labytnangi,66.6572,66.4183,3.11,87,100,4.65,RU,1686516266
129,oriximina,-1.7656,-55.8661,28.43,70,82,1.64,BR,1686516266
130,la serena,-29.9078,-71.2542,14.73,62,0,6.17,CL,1686516266
131,liepaja,56.5419,21.0367,11.99,62,0,2.06,LV,1686516118
132,queenstown,-31.8976,26.8753,9.11,33,7,2.76,ZA,1686516266
133,georgetown,5.4112,100.3354,28.96,87,20,1.03,MY,1686516008
134,rawson,-43.3002,-65.1023,10.16,57,0,3.09,AR,1686516267
135,hithadhoo,-0.6,73.0833,28.13,74,50,2.5,MV,1686516267
136,port isabel,26.0734,-97.2086,35.04,59,0,5.66,US,1686516241
137,kiunga,-6.1219,141.2906,23.31,100,100,0.92,PG,1686516267
138,paris,48.8534,2.3488,20.04,92,88,3.6,FR,1686516267
139,vadso,70.0744,29.7487,19.49,62,40,2.06,NO,1686516267
140,comodoro rivadavia,-45.8667,-67.5,7.92,53,0,1.03,AR,1686516267
141,carutapera,-1.195,-46.02,25.02,93,15,3.16,BR,1686516267
142,hermanus,-34.4187,19.2345,15.45,85,100,7.02,ZA,1686516268
143,praia,14.9215,-23.5087,26.3,69,0,9.26,CV,1686516268
144,zambrow,52.9855,22.2432,10.81,67,2,3.57,PL,1686516268
145,qamdo,31.1667,97.2333,1.96,95,100,2.77,CN,1686516268
146,qaqortoq,60.7167,-46.0333,6.1,72,6,2.44,GL,1686516268
147,nago,26.5881,127.9761,26.47,91,100,1.68,JP,1686516268
148,bandarbeyla,9.4942,50.8122,25.63,85,100,13.61,SO,1686516268
149,sitka,57.0531,-135.33,11.94,82,75,3.09,US,1686516269
150,san pedro del parana,-26.8333,-56.2,12.04,60,94,2.58,PY,1686516269
151,ilulissat,69.2167,-51.1,4.01,81,100,0.51,GL,1686516269
152,zhalantun,48.0,122.7167,16.25,76,51,2.41,CN,1686516269
153,northam,51.0333,-4.2167,16.88,91,69,2.39,GB,1686516269
154,laboulaye,-34.1266,-63.3912,8.65,28,0,1.38,AR,1686516269
155,ptolemaida,40.5147,21.6786,16.31,91,100,0.85,GR,1686516269
156,khandyga,62.6667,135.6,17.46,64,100,3.18,RU,1686516270
157,tregunc,47.85,-3.85,18.25,88,76,3.43,FR,1686516270
158,huarmey,-10.0681,-78.1522,23.43,71,3,5.21,PE,1686516270
159,guerrero negro,27.9769,-114.0611,21.1,50,0,8.21,MX,1686516270
160,san luis de la loma,17.2706,-100.8939,31.9,57,14,3.89,MX,1686516270
161,shantobe,52.4581,68.1839,14.02,86,47,2.7,KZ,1686516270
162,nagqu,31.5,92.0,1.94,87,51,2.47,CN,1686516270
163,alness,57.696,-4.2551,17.03,94,55,0.59,GB,1686516270
164,berezovyy,51.6667,135.7,15.66,74,8,2.4,RU,1686516270
165,mezhdurechensk,53.6942,88.0603,9.76,93,100,1.08,RU,1686516272
166,tinajo,29.0788,-13.7081,23.49,64,20,2.57,ES,1686516272
167,mount gambier,-37.8333,140.7667,10.29,73,44,4.45,AU,1686516272
168,murzuq,25.9155,13.9184,34.79,16,79,4.46,LY,1686516272
169,uturoa,-16.7333,-151.4333,26.7,65,21,6.34,PF,1686516272
170,aasiaat,68.7098,-52.8699,1.12,96,100,0.86,GL,1686516272
171,bindura,-17.3019,31.3306,12.91,55,3,0.51,ZW,1686516272
172,tura,25.5198,90.2201,23.64,92,99,2.65,IN,1686516273
173,gazojak,41.1875,61.4036,26.49,16,50,5.98,TM,1686516273
174,bel ombre,-4.6167,55.4167,26.91,78,40,7.2,SC,1686516273
175,petropavlovsk-kamchatsky,53.0452,158.6483,12.33,58,0,4.0,RU,1686516273
176,namibe,-15.1961,12.1522,18.97,72,52,3.62,AO,1686516273
177,lebu,-37.6167,-73.65,9.67,67,17,8.93,CL,1686516234
178,arica,-18.475,-70.3042,21.75,64,20,6.69,CL,1686516273
179,sao miguel,-5.4667,-35.3667,25.43,90,16,4.95,BR,1686516273
180,yashan,22.1975,109.9419,24.89,90,81,0.85,CN,1686516274
181,maintirano,-18.0667,44.0167,23.16,71,0,5.01,MG,1686516274
182,sao joao da barra,-21.6403,-41.0511,26.05,84,0,5.1,BR,1686516274
183,fortuna,40.5982,-124.1573,16.48,88,0,6.17,US,1686516274
184,ust-nera,64.5667,143.2,17.13,59,100,3.82,RU,1686516274
185,tolanaro,-25.0319,46.9987,20.04,88,20,0.0,MG,1686516274
186,polyarnyy,69.1989,33.4478,14.2,56,98,5.27,RU,1686516274
187,papatowai,-46.5619,169.4708,8.12,84,78,4.45,NZ,1686516186
188,senador jose porfirio,-2.5908,-51.9542,26.9,80,98,1.44,BR,1686516274
189,poshekhon'ye,58.4993,39.1353,7.34,72,5,0.17,RU,1686516275
190,labrador city,52.9463,-66.9114,21.95,43,75,2.57,CA,1686516275
191,taoudenni,22.6783,-3.9836,37.11,9,0,4.62,ML,1686516275
192,kerikeri,-35.2268,173.9474,11.27,90,13,1.71,NZ,1686516275
193,as sulayyil,20.4607,45.5779,33.14,11,55,2.96,SA,1686516275
194,beidao,34.5686,105.8933,17.5,81,100,0.36,CN,1686516275
195,mersing,2.4312,103.8405,24.95,94,20,2.06,MY,1686516275
196,lazaro cardenas,17.9583,-102.2,30.97,53,1,4.85,MX,1686516229
197,midvagur,62.0511,-7.1939,10.46,71,75,3.6,FO,1686516275
198,st. john's,47.5649,-52.7093,8.21,96,100,9.26,CA,1686516170
199,nova sintra,14.8667,-24.7167,22.75,80,5,9.77,CV,1686516276
200,fortaleza,-3.7227,-38.5247,29.07,70,0,3.6,BR,1686516065
201,qorovulbozor,39.5006,64.7936,25.84,21,93,4.52,UZ,1686516276
202,tazovsky,67.4667,78.7,7.29,96,82,3.18,RU,1686516276
203,ludvika,60.1496,15.1878,15.89,44,4,2.18,SE,1686516276
204,isafjordur,66.0755,-23.124,8.73,71,16,8.11,IS,1686516276
205,fort st. john,56.2499,-120.8529,22.94,40,75,5.14,CA,1686516276
206,vertientes,21.2594,-78.1464,31.34,76,79,3.65,CU,1686516276
207,tralee,52.2704,-9.7026,14.38,92,36,1.38,IE,1686516276
208,holualoa,19.6228,-155.9522,25.91,81,40,5.14,US,1686516277
209,salekhard,66.53,66.6019,2.77,93,100,5.41,RU,1686516277
210,hasaki,35.7333,140.8333,20.22,94,100,2.94,JP,1686516277
211,horodyshche,49.2849,31.4451,12.96,84,100,5.34,UA,1686516277
212,valparaiso,-33.0393,-71.6273,15.0,60,0,4.12,CL,1686516277
213,leninskiy,54.2781,37.4558,9.98,60,74,5.85,RU,1686516277
214,mutare,-18.9707,32.6709,12.17,94,0,1.43,ZW,1686516277
215,lucas,41.6501,-83.6666,19.08,76,75,5.66,US,1686516277
216,mount pearl,47.5166,-52.7813,7.75,97,100,9.26,CA,1686516278
217,port alfred,-33.5906,26.891,18.25,39,21,4.7,ZA,1686516278
218,curaca,-8.9903,-39.9094,29.16,44,73,7.36,BR,1686516278
219,sung noen,14.8992,101.8207,25.73,82,100,3.66,TH,1686516278
220,palmer,42.1584,-72.3287,28.75,40,75,4.12,US,1686516278
221,kilindoni,-7.9139,39.6668,26.4,70,5,6.38,TZ,1686516278
222,alice springs,-23.7,133.8833,10.68,75,40,2.06,AU,1686516278
223,nangen,35.41,127.3858,18.17,97,8,0.93,KR,1686516278
224,tuy hoa,13.0833,109.3,27.62,71,100,5.65,VN,1686516278
225,talnakh,69.4865,88.3972,9.56,57,100,5.08,RU,1686516278
226,mumbwa,-14.9783,27.0619,16.4,44,0,1.62,ZM,1686516279
227,oranjemund,-28.55,16.4333,14.5,76,34,5.25,NA,1686516279
228,greenwood,34.1668,-82.1165,22.23,61,100,3.09,US,1686516279
229,benito juarez,19.385,-99.165,30.56,19,75,1.54,MX,1686516106
230,la ronge,55.1001,-105.2842,29.14,34,40,5.14,CA,1686516279
231,fale old settlement,-9.3852,-171.2468,28.67,77,100,6.24,TK,1686516279
232,kapustin yar,48.5831,45.7372,22.47,46,100,2.47,RU,1686516279
233,nar'yan-mar,67.6713,53.087,3.35,60,100,4.31,RU,1686516279
234,togur,58.3631,82.8265,12.05,53,43,5.35,RU,1686516279
235,puerto ayora,-0.7393,-90.3518,30.98,73,93,5.54,EC,1686516280
236,basoko,1.2391,23.616,24.83,70,33,0.27,CD,1686516280
237,gadzhiyevo,69.2551,33.3362,14.36,54,98,5.32,RU,1686516280
238,toliara,-23.35,43.6667,19.78,86,7,3.86,MG,1686516280
239,constantia,44.1833,28.65,17.61,83,92,3.46,RO,1686516186
240,ardakan,32.31,54.0175,26.91,34,26,2.75,IR,1686516280
241,hami,42.8,93.45,30.52,15,0,5.51,CN,1686516280
242,kodinsk,58.6881,99.1844,5.24,72,0,1.47,RU,1686516280
243,gouyave,12.1646,-61.7296,30.43,70,20,9.77,GD,1686516280
244,zhangye,38.9342,100.4517,19.14,35,33,3.29,CN,1686516280
245,uacu cungo,-11.3634,15.1208,16.67,80,68,0.77,AO,1686516281
246,coquimatlan,19.2,-103.8,36.37,34,8,5.19,MX,1686516281
247,ha'il,27.5219,41.6907,31.01,20,0,2.06,SA,1686516273
248,al kharijah,25.4514,30.5464,29.9,23,0,3.03,EG,1686516281
249,lerwick,60.1545,-1.1494,12.0,93,100,4.21,GB,1686516281
250,tabou,4.423,-7.3528,25.44,81,86,5.56,CI,1686516281
251,weno,7.4515,151.8468,27.97,83,100,3.09,FM,1686516281
252,powell river,49.8496,-124.5361,19.8,72,20,4.63,CA,1686516281
253,san antonio de pale,-1.4014,5.6325,24.81,86,79,4.84,GQ,1686516281
254,coahuayana de hidalgo,18.7,-103.6583,33.37,48,14,3.63,MX,1686516282
255,wotho,10.1657,166.0102,27.92,80,100,7.94,MH,1686516282
256,mount isa,-20.7333,139.5,8.87,71,2,0.0,AU,1686516282
257,al hufuf,25.3646,49.5653,33.19,17,0,0.0,SA,1686516034
258,adrian,41.8975,-84.0372,18.01,87,100,6.69,US,1686516282
259,pisco,-13.7,-76.2167,22.03,64,20,7.2,PE,1686516282
260,klaksvik,62.2266,-6.589,10.51,65,61,3.99,FO,1686516282
261,minas de marcona,-15.2119,-75.1103,15.09,69,31,7.73,PE,1686516282
262,urangan,-25.3,152.9,18.02,83,1,2.79,AU,1686516282
263,hamilton,39.1834,-84.5333,25.91,75,75,6.17,US,1686516283
264,lethbridge,49.7,-112.8186,27.45,47,75,2.57,CA,1686516035
265,baringo,0.4667,35.9667,21.33,69,96,1.74,KE,1686516283
266,bati,11.1833,40.0167,23.21,43,95,1.76,ET,1686516283
267,maloye ganyushkino,46.6,49.2667,28.39,23,100,4.18,KZ,1686516283
268,schwarzheide,51.4833,13.8667,19.75,64,40,3.04,DE,1686516283
269,prince george,53.9166,-122.753,24.58,30,0,2.57,CA,1686516109
270,kiama,-34.6833,150.8667,8.1,91,67,2.16,AU,1686516283
271,la'ie,21.6477,-157.9253,28.98,68,13,2.68,US,1686516283
272,bulgan,48.8125,103.5347,16.0,60,100,2.09,MN,1686516283
273,geraldton,-28.7667,114.6,11.23,87,100,3.09,AU,1686516284
274,phek,25.6667,94.5,16.13,99,100,0.58,IN,1686516284
275,whitehorse,60.7161,-135.0538,15.05,30,100,8.75,CA,1686516284
276,olanchito,15.5,-86.5667,31.91,38,56,3.04,HN,1686516284
277,hobe sound,27.0595,-80.1364,33.32,72,75,5.66,US,1686516200
278,sambava,-14.2667,50.1667,22.46,89,30,3.33,MG,1686516284
279,durango,24.8333,-104.8333,32.26,9,62,2.44,MX,1686516095
280,san patricio,28.017,-97.5169,38.98,29,0,5.49,US,1686516284
281,humaita,-7.5061,-63.0208,29.63,69,97,0.44,BR,1686516284
282,colesberg,-30.72,25.0972,9.43,27,86,2.86,ZA,1686516285
283,fort bragg,35.139,-79.006,31.91,37,40,4.63,US,1686516285
284,micheweni,-4.9667,39.8333,24.64,79,14,4.57,TZ,1686516285
285,baud,20.8333,84.3167,32.48,30,99,1.0,IN,1686516285
286,port antonio,18.18,-76.4612,32.78,75,13,6.27,JM,1686516285
287,oroqen zizhiqi,50.5667,123.7167,14.4,80,43,1.42,CN,1686516285
288,el charco,2.4769,-78.1105,29.62,69,93,2.88,CO,1686516285
289,newman,37.3138,-121.0208,28.19,25,31,2.33,US,1686516285
290,hammerfest,70.6634,23.6821,9.25,76,75,13.89,NO,1686516285
291,ancud,-41.8697,-73.8203,8.11,80,72,1.24,CL,1686516286
292,tamarin,-20.3256,57.3706,24.31,81,24,3.86,MU,1686516286
293,labuan,5.2767,115.2417,26.2,89,20,1.03,MY,1686516286
294,ar rutbah,33.0381,40.2848,28.38,19,1,5.16,IQ,1686516286
295,kamaishi,39.2667,141.8833,16.63,97,100,3.27,JP,1686516286
296,watampone,-4.5386,120.3279,24.54,89,99,2.79,ID,1686516286
297,ambalangoda,6.2355,80.0538,27.29,83,96,6.05,LK,1686516286
298,okhotsk,59.3833,143.3,8.67,81,57,1.74,RU,1686516286
299,argo,37.6333,22.7333,20.44,82,2,0.88,GR,1686516286
300,udhampur,32.9333,75.1333,24.73,58,19,3.74,IN,1686516286
301,flying fish cove,-10.4217,105.6791,24.82,94,100,4.12,CX,1686516287
302,katsuren-haebaru,26.3369,127.8719,27.01,100,75,2.06,JP,1686516287
303,luderitz,-26.6481,15.1594,13.27,79,16,2.05,NA,1686516287
304,iquique,-20.2208,-70.1431,20.02,76,38,2.35,CL,1686516287
305,afaahiti,-17.75,-149.2833,26.93,68,97,6.78,PF,1686516287
306,kayangel,8.0823,134.7173,28.71,79,79,5.94,PW,1686516287
307,arish,31.1316,33.7984,23.16,68,0,1.04,EG,1686516287
308,suva,-18.1416,178.4415,20.71,94,75,1.54,FJ,1686516102
309,lorengau,-2.0226,147.2712,27.85,79,31,3.04,PG,1686516287
310,stockton heath,53.3708,-2.5741,21.81,80,40,2.57,GB,1686516288
311,mpanda,-6.3655,31.0409,22.08,58,97,0.98,TZ,1686516288
312,san rafael,-34.6177,-68.3301,10.82,21,0,2.22,AR,1686516288
313,monrovia,6.3005,-10.7969,25.87,86,96,3.61,LR,1686516288
314,healesville,-37.65,145.5167,10.35,97,96,1.45,AU,1686516070
315,broken hill,-31.95,141.4333,10.36,58,6,3.37,AU,1686516288
316,sinabang,2.4803,96.3801,26.33,85,96,0.93,ID,1686516288
317,fukuecho,32.6881,128.8419,22.46,89,100,2.41,JP,1686516288
318,tobelo,1.7284,128.0095,26.46,84,100,0.6,ID,1686516288
319,rancagua,-34.1708,-70.7444,7.92,71,0,2.01,CL,1686516156
320,alibag,18.6411,72.8792,29.04,78,99,8.6,IN,1686516289
321,punta cana,18.5818,-68.4043,30.87,66,20,4.12,DO,1686516178
322,poso,-1.3959,120.7524,25.79,76,95,2.01,ID,1686516289
323,colonia,50.9333,6.95,24.9,42,0,2.57,DE,1686516061
324,dunedin,-45.8742,170.5036,7.11,82,5,0.45,NZ,1686516245
325,yanam,16.7333,82.2167,29.68,60,96,1.95,IN,1686516289
326,shingu,33.7333,135.9833,21.14,98,100,1.79,JP,1686516289
327,stettler,52.3168,-112.7186,25.86,47,75,2.06,CA,1686516289
328,greymouth,-42.4667,171.2,8.2,87,93,1.46,NZ,1686516289
329,arteche,12.2645,125.4048,25.56,90,99,2.56,PH,1686516289
330,marat,25.0701,45.4615,34.15,14,2,3.02,SA,1686516290
331,san carlos,9.6612,-68.5827,29.32,73,56,1.05,VE,1686516290
332,beibei,29.8256,106.4339,25.76,77,100,1.41,CN,1686516290
333,ruteng,-8.6136,120.4721,15.68,92,100,0.78,ID,1686516290
334,kruisfontein,-34.0033,24.7314,12.3,62,98,2.17,ZA,1686516290
335,malango,-2.9627,119.9001,18.66,97,80,0.85,ID,1686516290
336,ansalta,42.6894,46.1178,14.99,89,90,1.47,RU,1686516290
337,paraiso,9.8383,-83.8656,24.48,76,100,1.17,CR,1686516290
338,pesqueria,25.7833,-100.05,32.75,58,40,3.6,MX,1686516290
339,akureyri,65.6835,-18.0878,15.96,33,20,8.23,IS,1686516291
340,gobabis,-22.45,18.9667,13.96,29,5,4.32,NA,1686516291
341,waingapu,-9.6567,120.2641,24.62,88,100,5.35,ID,1686516291
342,santana,-0.0583,-51.1817,29.1,74,75,4.12,BR,1686516291
343,kudahuvadhoo,2.6708,72.8944,28.29,79,48,6.24,MV,1686516291
344,nantucket,41.2835,-70.0995,23.03,81,0,4.12,US,1686516291
345,tibati,6.4667,12.6333,20.47,93,100,1.08,CM,1686516291
346,pierre,44.3683,-100.351,22.7,46,0,1.79,US,1686516291
347,dakhla,23.6848,-15.958,23.01,78,0,7.72,EH,1686516291
348,jincheng,35.5022,112.8328,18.09,70,62,1.14,CN,1686516292
349,goure,13.9835,10.2704,28.64,55,93,2.6,NE,1686516292
350,haifa,32.8156,34.9892,22.32,79,42,0.89,IL,1686516292
351,saudarkrokur,65.7461,-19.6394,11.9,52,5,8.58,IS,1686516292
352,hauterive,46.0901,3.4459,22.42,92,84,0.53,FR,1686516292
353,mar del plata,-38.0023,-57.5575,9.01,59,0,4.63,AR,1686516183
354,puerto quijarro,-17.7833,-57.7667,29.81,49,39,1.47,BO,1686516292
355,santa terezinha,-29.9002,-50.0904,13.32,79,98,5.67,BR,1686516292
356,itaituba,-4.2761,-55.9836,33.09,58,40,5.14,BR,1686516293
357,priozersk,61.0393,30.1291,9.49,88,63,3.09,RU,1686516293
358,chernyshevskiy,63.0128,112.4714,3.42,74,33,3.7,RU,1686516293
359,soio,-6.1349,12.3689,23.56,89,100,3.1,AO,1686516293
360,howrah,22.5892,88.3103,27.0,89,75,0.0,IN,1686516293
361,bathsheba,13.2167,-59.5167,30.34,70,40,6.17,BB,1686516293
362,port lincoln,-34.7333,135.8667,12.45,74,51,7.18,AU,1686516294
363,dickinson,29.4608,-95.0513,36.68,60,40,4.12,US,1686516294
364,myanaung,18.2833,95.3167,27.55,73,67,3.51,MM,1686516295
365,thunder bay,48.4001,-89.3168,18.99,24,20,5.14,CA,1686516000
366,delcevo,41.9672,22.7694,14.93,91,96,0.8,MK,1686516295
367,jennings,38.7192,-90.2604,19.5,88,100,6.17,US,1686516105
368,isabela,6.7085,121.9711,26.09,87,100,1.85,PH,1686516295
369,hafar al-batin,28.4328,45.9708,36.32,13,0,4.12,SA,1686516295
370,lehighton,40.8337,-75.7138,30.31,33,40,1.79,US,1686516295
371,bijie,27.3125,105.2942,15.32,80,100,1.29,CN,1686516296
372,kirgiz-miyaki,53.6324,54.7979,9.9,57,100,5.55,RU,1686516296
373,arraial do cabo,-22.9661,-42.0278,24.98,78,0,2.57,BR,1686516296
374,sola,-13.8833,167.55,26.22,77,60,10.16,VU,1686516296
375,bardsir,29.9227,56.5743,21.31,39,83,3.04,IR,1686516296
376,backo gradiste,45.5328,20.0283,16.99,95,100,2.12,RS,1686516296
377,turpan,42.9333,89.1667,35.33,14,8,2.92,CN,1686516296
378,taulaga,-11.0553,-171.0883,28.61,77,78,7.69,AS,1686516296
379,ampanihy,-24.7,44.75,16.74,91,0,2.35,MG,1686516297
380,ghanzi,-21.5667,21.7833,18.33,21,0,2.88,BW,1686516297
381,cassia,-20.5831,-46.9219,19.98,57,3,1.99,BR,1686516297
382,mormugao,15.4,73.8,28.04,80,54,6.51,IN,1686516297
383,manismata,-2.4667,111.0333,23.53,100,99,1.1,ID,1686516297
384,lyozna,55.0249,30.7956,7.87,65,0,3.58,BY,1686516297
385,salalah,17.0151,54.0924,30.05,79,75,3.09,OM,1686516297
386,belaya kholunitsa,58.84,50.8528,3.92,79,8,2.11,RU,1686516297
387,illizi,26.4833,8.4667,37.89,10,0,4.26,DZ,1686516297
388,plesetsk,62.708,40.2916,6.93,77,67,2.34,RU,1686516297
389,bubaque,11.2833,-15.8333,27.79,80,89,7.23,GW,1686516298
390,grand baie,-20.0182,57.5802,24.26,80,21,0.45,MU,1686516298
391,ulladulla,-35.35,150.4667,8.54,67,47,2.32,AU,1686516298
392,portland,45.5234,-122.6762,28.1,52,20,6.69,US,1686516092
393,sisimiut,66.9395,-53.6735,2.94,90,81,9.16,GL,1686516298
394,miyoshi,35.0833,137.0667,21.55,94,100,1.0,JP,1686516298
395,vorkuta,67.5,64.0,0.35,81,100,8.52,RU,1686516298
396,al ain city,24.1917,55.7606,34.79,29,0,4.63,AE,1686516298
397,kodiak,57.79,-152.4072,8.73,81,100,6.17,US,1686516298
398,el bauga,18.262,33.9081,34.52,26,14,1.4,SD,1686516299
399,zhaotong,27.3167,103.7167,11.86,93,100,0.9,CN,1686516299
400,grajau,-5.8194,-46.1386,28.33,58,87,0.83,BR,1686516299
401,smithers,54.7804,-127.1743,22.18,28,20,3.6,CA,1686516299
402,usinsk,65.9939,57.5281,-0.13,89,12,4.33,RU,1686516299
403,grenada,37.1882,-3.6067,24.2,47,20,2.57,ES,1686516299
404,cockburn town,21.4612,-71.1419,28.24,82,4,6.61,TC,1686516222
405,galliano,29.4422,-90.2992,34.44,55,40,5.66,US,1686516299
406,oliver,49.1831,-119.5524,23.95,50,46,4.12,CA,1686516299
407,namsos,64.4662,11.4957,12.95,94,75,2.06,NO,1686516300
408,nuuk,64.1835,-51.7216,4.34,93,100,7.2,GL,1686516300
409,zuera,41.8677,-0.7898,22.27,68,100,2.76,ES,1686516300
410,emporia,38.4039,-96.1817,23.11,64,75,6.69,US,1686516300
411,lihue,21.9789,-159.3672,27.58,72,20,6.17,US,1686516300
412,emerald,-23.5333,148.1667,13.54,81,46,2.59,AU,1686516300
413,mandal,25.45,74.5667,31.35,43,4,6.48,IN,1686516300
414,natal,-5.795,-35.2094,25.36,94,75,5.14,BR,1686516218
415,murun-kuren,49.6342,100.1625,14.45,92,100,1.55,MN,1686516301
416,port douglas,-16.4833,145.4667,21.09,84,26,2.58,AU,1686516196
417,lido di ostia,41.7321,12.2765,23.03,57,0,2.57,IT,1686516301
418,east london,-33.0153,27.9116,18.75,32,1,4.39,ZA,1686516301
419,mabaruma,8.2,-59.7833,28.0,77,15,2.51,GY,1686516301
420,vernon,50.2581,-119.2691,25.72,50,76,2.06,CA,1686516301
421,wladyslawowo,54.7909,18.4009,15.99,81,0,5.67,PL,1686516302
422,bamboo flat,11.7,92.7167,28.05,89,75,2.57,IN,1686516302
423,wynyard,-41.0,145.7167,9.99,91,90,1.81,AU,1686516302
424,mlangali,-9.7833,34.5167,11.88,84,99,2.19,TZ,1686516302
425,biltine,14.5333,20.9167,26.6,58,74,7.69,TD,1686516302
426,boguchany,58.3814,97.4531,5.79,73,0,1.69,RU,1686516303
427,jamestown,42.097,-79.2353,25.85,36,20,6.17,US,1686516258
428,kokpekty,48.75,82.4,11.32,77,0,5.87,KZ,1686516303
429,grand-lahou,5.1367,-5.0242,24.9,86,94,5.0,CI,1686516303
430,ban dan lan hoi,17.0068,99.575,26.16,78,100,3.38,TH,1686516303
431,dabeiba,7.0017,-76.2672,27.07,91,99,1.44,CO,1686516304
432,likasi,-10.9814,26.7333,15.52,53,3,1.36,CD,1686516304
433,praia da vitoria,38.7333,-27.0667,21.14,73,20,2.57,PT,1686516304
434,taro,-8.3862,115.28,23.0,94,67,0.49,ID,1686516304
435,chernogorsk,53.8236,91.2842,11.76,76,0,2.0,RU,1686516305
436,kappeln,54.6612,9.9313,15.95,81,6,7.5,DE,1686516305
437,k'olito,7.3167,38.0833,16.28,89,100,1.62,ET,1686516305
438,neyriz,29.1988,54.3278,25.65,23,5,1.33,IR,1686516305
439,chonchi,-42.6128,-73.8092,9.56,88,95,2.12,CL,1686516184
440,zaragoza,41.6561,-0.8773,22.79,64,20,1.03,ES,1686516225
441,floro,61.5996,5.0328,17.04,58,0,3.09,NO,1686516306
442,moussoro,13.6408,16.4901,32.48,40,27,2.89,TD,1686516306
443,las heras,-46.5419,-68.9359,4.34,56,3,3.83,AR,1686516036
444,formiga,-20.4644,-45.4264,18.92,57,2,0.84,BR,1686516306
445,waat,51.1454,6.4958,24.36,52,6,2.57,DE,1686516307
446,qobustan,40.0824,49.412,24.4,70,5,1.28,AZ,1686516307
447,lagoa,39.05,-27.9833,18.18,80,76,6.51,PT,1686516307
448,alipur,29.3846,70.9116,37.79,24,0,7.19,PK,1686516307
449,nueva gerona,21.8833,-82.8,30.97,63,32,5.53,CU,1686516307
450,alesund,62.4723,6.1549,18.28,67,0,1.03,NO,1686516307
451,egilsstadir,65.2653,-14.3948,17.95,32,0,6.17,IS,1686516308
452,castillos,-34.1667,-53.8333,8.6,68,28,4.17,UY,1686516308
453,yeppoon,-23.1333,150.7333,15.88,92,48,3.71,AU,1686516308
454,atafu village,-8.5421,-172.5159,28.96,74,100,7.4,TK,1686516308
455,balboa,2.0396,-77.2168,23.66,68,88,1.83,CO,1686516308
456,filingue,14.3521,3.3168,33.33,40,13,4.24,NE,1686516308
457,ismailia,30.6043,32.2723,22.35,68,11,1.87,EG,1686516308
458,okha,53.5739,142.9478,7.01,90,97,2.79,RU,1686516309
459,makhambet,47.6667,51.5833,28.12,21,99,4.71,KZ,1686516309
460,tsiombe,-25.3,45.4833,17.59,85,0,1.38,MG,1686516186
461,masterton,-40.9597,175.6575,6.79,91,46,0.51,NZ,1686516152
462,oroquieta,8.4858,123.8044,24.52,89,95,2.44,PH,1686516309
463,sumy,50.9216,34.8003,11.41,84,100,6.4,UA,1686516310
464,petrolina,-9.3986,-40.5008,30.03,51,20,5.14,BR,1686516310
465,tamanrasset,22.785,5.5228,24.95,44,40,4.63,DZ,1686516310
466,lulea,65.5842,22.1547,15.04,51,0,2.06,SE,1686516310
467,quellon,-43.1167,-73.6167,9.14,81,75,4.12,CL,1686516310
468,ca mau,9.1769,105.15,26.12,87,81,2.2,VN,1686516018
469,yerofey pavlovich,53.9667,121.9667,15.88,66,98,0.96,RU,1686516310
470,arcelia,18.2833,-100.2667,40.69,22,14,2.64,MX,1686516311
471,heilbron,-27.2812,27.9709,9.16,21,0,2.39,ZA,1686516311
472,piti village,13.4626,144.6933,28.03,90,0,3.09,GU,1686516311
473,mariinsk,56.2139,87.7472,6.54,68,0,2.32,RU,1686516311
474,benguela,-12.5763,13.4055,21.36,83,76,0.55,AO,1686516311
475,baiti,13.745,-14.7482,37.69,24,7,2.87,SN,1686516311
476,kingston,17.997,-76.7936,32.36,70,20,9.26,JM,1686516207
477,mersa matruh,31.3525,27.2453,21.93,71,17,3.02,EG,1686516312
478,greenville,35.6127,-77.3663,30.09,46,75,6.17,US,1686516076
479,tangkak,2.2673,102.5453,26.93,90,95,0.67,MY,1686516312
480,san mariano,7.5,126.0,22.18,92,68,1.36,PH,1686516312
481,oppdal,62.5943,9.6912,12.67,82,98,1.81,NO,1686516312
482,kichmengskiy gorodok,59.9816,45.7854,3.75,78,12,1.1,RU,1686516312
483,kolpny,52.2282,37.0368,12.95,56,100,7.55,RU,1686516312
484,biloela,-24.4167,150.5,12.63,90,1,1.56,AU,1686516313
485,flin flon,54.7682,-101.865,25.91,34,0,5.66,CA,1686516313
486,songea,-10.6833,35.65,18.64,72,20,0.0,TZ,1686516313
487,chui,-33.6971,-53.4616,9.63,57,44,3.64,UY,1686516313
488,richards bay,-28.783,32.0377,18.16,82,0,5.02,ZA,1686516313
489,les cayes,18.2,-73.75,29.25,69,5,4.18,HT,1686516313
490,chita,52.0333,113.55,5.94,87,8,0.0,RU,1686516313
491,villa zempoala,19.45,-96.4167,33.84,63,15,4.74,MX,1686516313
492,tekirova,36.5017,30.5272,22.21,85,100,2.03,TR,1686516314
493,amursk,50.2261,136.8994,14.21,96,71,1.8,RU,1686516314
494,troitskoye,52.9821,84.6757,10.89,95,1,2.42,RU,1686516314
495,tshabong,-26.05,22.45,17.03,21,47,4.21,BW,1686516314
496,lata,40.1629,-8.3327,15.89,87,100,0.88,PT,1686516314
497,ilave,-16.0833,-69.6667,12.56,23,1,3.6,PE,1686516314
498,mawu,29.5923,107.3139,21.37,73,100,1.81,CN,1686516315
499,juan de ayolas,-27.4,-56.9,12.9,45,99,4.73,PY,1686516315
500,dergachi,51.2328,48.7659,15.37,53,100,9.07,RU,1686516315
501,sitia,35.2,26.0986,23.32,77,0,2.35,GR,1686516315
502,monte carmelo,-18.7247,-47.4986,21.44,44,0,0.7,BR,1686516315
503,tokonou,9.65,-9.7833,22.97,91,71,1.91,GN,1686516316
504,ketchikan,55.3422,-131.6461,16.25,59,100,1.32,US,1686516316
505,guaranda,-1.6,-79.0,14.87,97,79,2.13,EC,1686516257
506,along,28.1667,94.7667,22.9,100,100,0.36,IN,1686516316
507,yonggwang-up,40.0183,127.4547,15.45,89,87,1.72,KP,1686516316
508,kenora,49.8167,-94.4337,23.54,33,40,3.09,CA,1686516317
509,berdigestyakh,62.0989,126.6992,14.99,92,100,3.51,RU,1686516317
510,haiku-pauwela,20.9219,-156.3051,29.01,45,20,7.72,US,1686516317
511,kondopoga,62.2057,34.2614,12.82,57,100,3.5,RU,1686516317
512,nikolayevsk-on-amure,53.1406,140.73,6.48,98,100,0.9,RU,1686516317
513,sirte,31.2089,16.5887,22.7,77,2,9.15,LY,1686516317
514,saint-joseph,-21.3667,55.6167,22.21,80,19,3.07,RE,1686516318
515,extrema,-22.8547,-46.3183,16.41,76,2,1.98,BR,1686516318
516,itamaraca,-7.7478,-34.8256,25.03,88,24,3.69,BR,1686516318
517,glen innes,-29.7333,151.7333,4.79,94,98,1.12,AU,1686516318
518,burang,30.25,81.1667,4.42,88,46,2.0,CN,1686516318
519,whakatane,-37.9585,176.9854,10.43,76,3,2.68,NZ,1686516318
520,zeya,53.75,127.2667,19.48,66,25,0.53,RU,1686516318
521,gubkinskiy,64.434,76.5026,7.8,81,88,3.78,RU,1686516126
522,brak,27.5496,14.2714,34.89,15,20,2.69,LY,1686516319
523,kristiansund,63.1115,7.732,16.03,63,0,1.54,NO,1686516319
524,sorong,-0.8833,131.25,24.63,87,100,3.48,ID,1686516319
525,ciudad lazaro cardenas,17.9583,-102.2,30.97,53,1,4.85,MX,1686516319
526,ta`u,-14.2336,-169.5144,27.51,79,15,6.38,AS,1686516319
527,crucecita,-28.95,-58.9833,10.52,51,8,2.74,AR,1686516319
528,tazacorte,28.629,-17.9293,23.54,93,20,1.03,ES,1686516320
529,bossangoa,6.4926,17.4552,24.95,73,99,0.7,CF,1686516320
530,lillehammer,61.1146,10.4674,13.65,59,46,2.38,NO,1686516320
531,el porvenir,13.7617,-87.3458,32.63,57,100,1.78,HN,1686516320
532,fort frances,48.5999,-93.4003,24.53,35,40,4.12,CA,1686516320
533,sampit,-2.5333,112.95,23.46,99,83,1.01,ID,1686516320
534,lahad datu,5.0268,118.327,24.54,91,92,0.99,MY,1686516320
535,uttar char fasson,22.2332,90.7132,28.99,87,100,7.8,BD,1686516321
536,cascavel,-24.9558,-53.4553,16.78,100,75,1.54,BR,1686516096
537,manggar,-2.8833,108.2667,27.94,80,86,6.08,ID,1686516321
538,tofol,5.3248,163.0078,28.92,76,49,9.42,FM,1686516321
539,brookings,44.3114,-96.7984,20.62,47,0,5.66,US,1686516301
540,sabzevar,36.2126,57.6819,26.55,17,95,3.62,IR,1686516321
541,searcy,35.2506,-91.7363,32.77,51,0,5.14,US,1686516321
542,kourou,5.1552,-52.6478,25.03,79,18,3.05,GF,1686516322
543,prince albert,53.2001,-105.7677,26.97,34,75,8.23,CA,1686516322
544,el granada,37.5027,-122.4694,26.35,75,100,4.12,US,1686516322
545,sos'va,59.1766,61.8558,4.11,71,2,3.64,RU,1686516322
546,ebaye,8.7748,167.7392,28.01,78,40,8.23,MH,1686516322
547,sinjar,36.3209,41.8754,29.16,24,1,3.34,IQ,1686516322
548,wulingyuan,29.3494,110.5441,21.28,84,100,0.89,CN,1686516322
549,velikiy ustyug,60.7644,46.3106,4.15,79,54,1.2,RU,1686516322
550,prachuap khiri khan,12.2167,99.75,27.05,85,100,2.44,TH,1686516323
551,bodo,67.28,14.405,9.41,98,75,4.63,NO,1686516323
552,faya-largeau,17.9257,19.1043,35.08,34,64,4.92,TD,1686516323
553,alofi,-19.0595,-169.9187,23.94,94,75,3.6,NU,1686516323
554,malkara,40.89,26.9011,15.93,75,100,2.58,TR,1686516323
555,coquimbo,-29.9533,-71.3436,14.85,62,0,6.17,CL,1686516323
556,le port,-20.9373,55.2919,23.0,93,7,2.59,RE,1686516324
557,protaras,35.0125,34.0583,24.43,90,26,0.45,CY,1686516324
558,karaidel',55.8337,56.9069,4.45,79,88,1.09,RU,1686516127
559,bikenibeu village,1.3673,173.1241,28.98,79,75,2.06,KI,1686516324
560,baotou,40.6522,109.8222,17.14,45,19,3.42,CN,1686516324
561,tucuma,-0.1833,-50.05,26.22,88,7,2.48,BR,1686516324
562,rudnichnyy,59.617,52.4703,2.86,74,43,2.16,RU,1686516324
563,rikaze,29.25,88.8833,11.49,65,100,1.66,CN,1686516324
564,miura,35.14,139.6192,20.99,93,100,2.5,JP,1686516325
565,ust'-ilimsk,58.0006,102.6619,5.37,90,0,1.68,RU,1686516325
566,barcelos,41.5388,-8.6151,19.08,92,96,1.08,PT,1686516325
567,arno,60.1167,18.6333,11.55,67,0,4.46,SE,1686516325
568,nyurba,63.2842,118.3319,6.58,61,80,4.47,RU,1686516325
569,gambiran satu,-8.3939,114.1464,22.24,98,84,0.57,ID,1686516325
570,nishinoomote,30.7333,131.0,23.08,96,100,8.6,JP,1686516325
571,bonthe,7.5264,-12.505,25.61,88,100,2.42,SL,1686516326
572,norilsk,69.3535,88.2027,9.68,61,100,4.85,RU,1686516326
573,taksimo,56.3444,114.8794,18.42,79,52,1.55,RU,1686516326
574,nassau,40.7507,-73.5829,27.81,67,0,4.12,US,1686516125
575,buta,2.7858,24.73,23.61,77,93,1.69,CD,1686516326
576,kirkland lake,48.1446,-80.0377,9.16,93,96,2.06,CA,1686516326
577,noosa heads,-26.3833,153.15,16.85,99,91,2.83,AU,1686516327
578,bakau,13.4781,-16.6819,28.08,78,0,4.12,GM,1686516327
579,glace bay,46.1969,-59.957,17.81,78,75,8.75,CA,1686516327
580,trapani,37.8333,12.6667,21.26,83,20,2.06,IT,1686516327
581,tubarjal,30.4999,38.216,27.33,27,3,10.0,SA,1686516327
582,kolonia town,6.964,158.206,28.0,83,100,2.57,FM,1686516327
